[
  {
    "station": "JURONG EAST MRT STATION",
    "lat": 1.333209,
    "lng": 103.742263,
    "n_exits": 0,
    "shelter_ratio": 0.28,
    "covered_length_m": 2192.6,
    "footpath_length_m": 7831.3,
    "rainfall_mm": 2599.9,
    "weather_station": "Clementi Road",
    "passenger_volume": 128643,
    "exposure_score": 1.0
  },
  {
    "station": "NEWTON MRT STATION",
    "lat": 1.312958,
    "lng": 103.838038,
    "n_exits": 0,
    "shelter_ratio": 0.1663,
    "covered_length_m": 1158.8,
    "footpath_length_m": 6968.8,
    "rainfall_mm": 2535.2,
    "weather_station": "Toa Payoh North",
    "passenger_volume": 110915,
    "exposure_score": 0.9951
  },
  {
    "station": "ORCHARD MRT STATION",
    "lat": 1.303244,
    "lng": 103.831698,
    "n_exits": 0,
    "shelter_ratio": 0.0848,
    "covered_length_m": 763.9,
    "footpath_length_m": 9012.7,
    "rainfall_mm": 2114.0,
    "weather_station": "Kampong Bahru Road",
    "passenger_volume": 125131,
    "exposure_score": 0.9901
  },
  {
    "station": "PAYA LEBAR MRT STATION",
    "lat": 1.317668,
    "lng": 103.892595,
    "n_exits": 0,
    "shelter_ratio": 0.0256,
    "covered_length_m": 235.5,
    "footpath_length_m": 9196.8,
    "rainfall_mm": 2425.3,
    "weather_station": "Kim Chuan Road",
    "passenger_volume": 85550,
    "exposure_score": 0.9852
  },
  {
    "station": "WOODLANDS MRT STATION",
    "lat": 1.436348,
    "lng": 103.787256,
    "n_exits": 0,
    "shelter_ratio": 0.2849,
    "covered_length_m": 2261.0,
    "footpath_length_m": 7935.6,
    "rainfall_mm": 2360.0,
    "weather_station": "Woodlands Ave 9",
    "passenger_volume": 113894,
    "exposure_score": 0.9803
  },
  {
    "station": "BUGIS MRT STATION",
    "lat": 1.30013,
    "lng": 103.856282,
    "n_exits": 0,
    "shelter_ratio": 0.1571,
    "covered_length_m": 1750.5,
    "footpath_length_m": 11141.5,
    "rainfall_mm": 2114.0,
    "weather_station": "Kampong Bahru Road",
    "passenger_volume": 110894,
    "exposure_score": 0.9754
  },
  {
    "station": "SERANGOON MRT STATION",
    "lat": 1.350005,
    "lng": 103.873137,
    "n_exits": 0,
    "shelter_ratio": 0.2849,
    "covered_length_m": 1922.3,
    "footpath_length_m": 6747.7,
    "rainfall_mm": 2425.3,
    "weather_station": "Kim Chuan Road",
    "passenger_volume": 108584,
    "exposure_score": 0.9704
  },
  {
    "station": "CHINATOWN MRT STATION",
    "lat": 1.284447,
    "lng": 103.843932,
    "n_exits": 0,
    "shelter_ratio": 0.1269,
    "covered_length_m": 1561.9,
    "footpath_length_m": 12303.7,
    "rainfall_mm": 2114.0,
    "weather_station": "Kampong Bahru Road",
    "passenger_volume": 106049,
    "exposure_score": 0.9655
  },
  {
    "station": "RAFFLES PLACE MRT STATION",
    "lat": 1.284067,
    "lng": 103.851459,
    "n_exits": 0,
    "shelter_ratio": 0.0639,
    "covered_length_m": 310.9,
    "footpath_length_m": 4864.9,
    "rainfall_mm": 2114.0,
    "weather_station": "Kampong Bahru Road",
    "passenger_volume": 94875,
    "exposure_score": 0.9606
  },
  {
    "station": "CITY HALL MRT STATION",
    "lat": 1.292933,
    "lng": 103.852609,
    "n_exits": 0,
    "shelter_ratio": 0.0781,
    "covered_length_m": 767.3,
    "footpath_length_m": 9821.7,
    "rainfall_mm": 2114.0,
    "weather_station": "Kampong Bahru Road",
    "passenger_volume": 96215,
    "exposure_score": 0.9557
  },
  {
    "station": "YISHUN MRT STATION",
    "lat": 1.429582,
    "lng": 103.834972,
    "n_exits": 0,
    "shelter_ratio": 0.3207,
    "covered_length_m": 1961.0,
    "footpath_length_m": 6114.4,
    "rainfall_mm": 2543.0,
    "weather_station": "Sembawang",
    "passenger_volume": 98085,
    "exposure_score": 0.9507
  },
  {
    "station": "PUNGGOL MRT STATION",
    "lat": 1.405133,
    "lng": 103.902374,
    "n_exits": 0,
    "shelter_ratio": 0.1002,
    "covered_length_m": 468.4,
    "footpath_length_m": 4674.6,
    "rainfall_mm": 2352.0,
    "weather_station": "Punggol Central",
    "passenger_volume": 81324,
    "exposure_score": 0.9458
  },
  {
    "station": "HARBOURFRONT MRT STATION",
    "lat": 1.265342,
    "lng": 103.821498,
    "n_exits": 0,
    "shelter_ratio": 0.1933,
    "covered_length_m": 682.0,
    "footpath_length_m": 3528.8,
    "rainfall_mm": 2114.0,
    "weather_station": "Kampong Bahru Road",
    "passenger_volume": 97759,
    "exposure_score": 0.9409
  },
  {
    "station": "NOVENA MRT STATION",
    "lat": 1.32043,
    "lng": 103.843818,
    "n_exits": 0,
    "shelter_ratio": 0.1035,
    "covered_length_m": 848.7,
    "footpath_length_m": 8196.5,
    "rainfall_mm": 2535.2,
    "weather_station": "Toa Payoh North",
    "passenger_volume": 68298,
    "exposure_score": 0.936
  },
  {
    "station": "TAMPINES MRT STATION",
    "lat": 1.354298,
    "lng": 103.943993,
    "n_exits": 0,
    "shelter_ratio": 0.2237,
    "covered_length_m": 1944.1,
    "footpath_length_m": 8689.8,
    "rainfall_mm": 2075.5,
    "weather_station": "Tampines Ave 5",
    "passenger_volume": 103074,
    "exposure_score": 0.931
  },
  {
    "station": "CLEMENTI MRT STATION",
    "lat": 1.315078,
    "lng": 103.765233,
    "n_exits": 0,
    "shelter_ratio": 0.3661,
    "covered_length_m": 2100.2,
    "footpath_length_m": 5737.0,
    "rainfall_mm": 2599.9,
    "weather_station": "Clementi Road",
    "passenger_volume": 91087,
    "exposure_score": 0.9261
  },
  {
    "station": "BAYFRONT MRT STATION",
    "lat": 1.281872,
    "lng": 103.859076,
    "n_exits": 0,
    "shelter_ratio": 0.0461,
    "covered_length_m": 183.4,
    "footpath_length_m": 3980.7,
    "rainfall_mm": 2114.0,
    "weather_station": "Kampong Bahru Road",
    "passenger_volume": 71635,
    "exposure_score": 0.9212
  },
  {
    "station": "LITTLE INDIA MRT STATION",
    "lat": 1.307161,
    "lng": 103.84931,
    "n_exits": 0,
    "shelter_ratio": 0.1196,
    "covered_length_m": 1132.9,
    "footpath_length_m": 9473.8,
    "rainfall_mm": 2535.2,
    "weather_station": "Toa Payoh North",
    "passenger_volume": 59735,
    "exposure_score": 0.9163
  },
  {
    "station": "FARRER PARK MRT STATION",
    "lat": 1.312448,
    "lng": 103.85427,
    "n_exits": 0,
    "shelter_ratio": 0.1408,
    "covered_length_m": 1801.4,
    "footpath_length_m": 12795.4,
    "rainfall_mm": 2535.2,
    "weather_station": "Toa Payoh North",
    "passenger_volume": 60829,
    "exposure_score": 0.9113
  },
  {
    "station": "BOON LAY MRT STATION",
    "lat": 1.338604,
    "lng": 103.706059,
    "n_exits": 0,
    "shelter_ratio": 0.4852,
    "covered_length_m": 2697.9,
    "footpath_length_m": 5560.9,
    "rainfall_mm": 2713.1,
    "weather_station": "Nanyang Avenue (NTU)",
    "passenger_volume": 92219,
    "exposure_score": 0.9064
  },
  {
    "station": "SEMBAWANG MRT STATION",
    "lat": 1.44907,
    "lng": 103.820194,
    "n_exits": 0,
    "shelter_ratio": 0.3433,
    "covered_length_m": 2416.5,
    "footpath_length_m": 7039.2,
    "rainfall_mm": 2543.0,
    "weather_station": "Sembawang",
    "passenger_volume": 75447,
    "exposure_score": 0.9015
  },
  {
    "station": "BISHAN MRT STATION",
    "lat": 1.351086,
    "lng": 103.848776,
    "n_exits": 0,
    "shelter_ratio": 0.0713,
    "covered_length_m": 670.4,
    "footpath_length_m": 9402.5,
    "rainfall_mm": 2535.2,
    "weather_station": "Toa Payoh North",
    "passenger_volume": 51540,
    "exposure_score": 0.8966
  },
  {
    "station": "CHOA CHU KANG MRT STATION",
    "lat": 1.385172,
    "lng": 103.744369,
    "n_exits": 0,
    "shelter_ratio": 0.425,
    "covered_length_m": 3350.6,
    "footpath_length_m": 7883.4,
    "rainfall_mm": 2762.6,
    "weather_station": "Tengah",
    "passenger_volume": 74486,
    "exposure_score": 0.8916
  },
  {
    "station": "KRANJI MRT STATION",
    "lat": 1.42524,
    "lng": 103.762181,
    "n_exits": 0,
    "shelter_ratio": 0.1508,
    "covered_length_m": 309.8,
    "footpath_length_m": 2054.3,
    "rainfall_mm": 2677.0,
    "weather_station": "Mandai Lake Road",
    "passenger_volume": 51444,
    "exposure_score": 0.8867
  },
  {
    "station": "DHOBY GHAUT MRT STATION",
    "lat": 1.299375,
    "lng": 103.845715,
    "n_exits": 0,
    "shelter_ratio": 0.0343,
    "covered_length_m": 308.9,
    "footpath_length_m": 9009.8,
    "rainfall_mm": 2114.0,
    "weather_station": "Kampong Bahru Road",
    "passenger_volume": 61769,
    "exposure_score": 0.8818
  },
  {
    "station": "TANJONG PAGAR MRT STATION",
    "lat": 1.276515,
    "lng": 103.845854,
    "n_exits": 0,
    "shelter_ratio": 0.0552,
    "covered_length_m": 746.6,
    "footpath_length_m": 13533.8,
    "rainfall_mm": 2114.0,
    "weather_station": "Kampong Bahru Road",
    "passenger_volume": 62828,
    "exposure_score": 0.8768
  },
  {
    "station": "HOUGANG MRT STATION",
    "lat": 1.371281,
    "lng": 103.892348,
    "n_exits": 0,
    "shelter_ratio": 0.1865,
    "covered_length_m": 1163.3,
    "footpath_length_m": 6237.1,
    "rainfall_mm": 2479.6,
    "weather_station": "Paya Lebar",
    "passenger_volume": 57848,
    "exposure_score": 0.8719
  },
  {
    "station": "ANG MO KIO MRT STATION",
    "lat": 1.369949,
    "lng": 103.849616,
    "n_exits": 0,
    "shelter_ratio": 0.457,
    "covered_length_m": 2438.9,
    "footpath_length_m": 5337.2,
    "rainfall_mm": 2550.4,
    "weather_station": "Ang Mo Kio Ave 5",
    "passenger_volume": 80846,
    "exposure_score": 0.867
  },
  {
    "station": "BUKIT PANJANG MRT STATION",
    "lat": 1.37916,
    "lng": 103.761573,
    "n_exits": 0,
    "shelter_ratio": 0.4691,
    "covered_length_m": 4867.6,
    "footpath_length_m": 10375.5,
    "rainfall_mm": 2677.0,
    "weather_station": "Mandai Lake Road",
    "passenger_volume": 77034,
    "exposure_score": 0.8621
  },
  {
    "station": "TOA PAYOH MRT STATION",
    "lat": 1.332677,
    "lng": 103.847421,
    "n_exits": 0,
    "shelter_ratio": 0.3647,
    "covered_length_m": 1475.7,
    "footpath_length_m": 4046.1,
    "rainfall_mm": 2535.2,
    "weather_station": "Toa Payoh North",
    "passenger_volume": 67731,
    "exposure_score": 0.8571
  },
  {
    "station": "SENGKANG MRT STATION",
    "lat": 1.391528,
    "lng": 103.895416,
    "n_exits": 0,
    "shelter_ratio": 0.4363,
    "covered_length_m": 3400.1,
    "footpath_length_m": 7793.4,
    "rainfall_mm": 2352.0,
    "weather_station": "Punggol Central",
    "passenger_volume": 83545,
    "exposure_score": 0.8522
  },
  {
    "station": "OUTRAM PARK MRT STATION",
    "lat": 1.280659,
    "lng": 103.839312,
    "n_exits": 0,
    "shelter_ratio": 0.1928,
    "covered_length_m": 1551.2,
    "footpath_length_m": 8044.1,
    "rainfall_mm": 2114.0,
    "weather_station": "Kampong Bahru Road",
    "passenger_volume": 61820,
    "exposure_score": 0.8473
  },
  {
    "station": "KOVAN MRT STATION",
    "lat": 1.36018,
    "lng": 103.885091,
    "n_exits": 0,
    "shelter_ratio": 0.0953,
    "covered_length_m": 872.8,
    "footpath_length_m": 9155.0,
    "rainfall_mm": 2479.6,
    "weather_station": "Paya Lebar",
    "passenger_volume": 43737,
    "exposure_score": 0.8424
  },
  {
    "station": "LAKESIDE MRT STATION",
    "lat": 1.344263,
    "lng": 103.720965,
    "n_exits": 0,
    "shelter_ratio": 0.4368,
    "covered_length_m": 2248.3,
    "footpath_length_m": 5146.9,
    "rainfall_mm": 2713.1,
    "weather_station": "Nanyang Avenue (NTU)",
    "passenger_volume": 61290,
    "exposure_score": 0.8374
  },
  {
    "station": "CANBERRA MRT STATION",
    "lat": 1.443118,
    "lng": 103.829715,
    "n_exits": 0,
    "shelter_ratio": 0.0286,
    "covered_length_m": 217.3,
    "footpath_length_m": 7606.0,
    "rainfall_mm": 2543.0,
    "weather_station": "Sembawang",
    "passenger_volume": 38444,
    "exposure_score": 0.8325
  },
  {
    "station": "SOMERSET MRT STATION",
    "lat": 1.300258,
    "lng": 103.839075,
    "n_exits": 0,
    "shelter_ratio": 0.2092,
    "covered_length_m": 2396.7,
    "footpath_length_m": 11459.0,
    "rainfall_mm": 2114.0,
    "weather_station": "Kampong Bahru Road",
    "passenger_volume": 60245,
    "exposure_score": 0.8276
  },
  {
    "station": "ADMIRALTY MRT STATION",
    "lat": 1.440587,
    "lng": 103.800977,
    "n_exits": 0,
    "shelter_ratio": 0.4425,
    "covered_length_m": 3124.9,
    "footpath_length_m": 7061.4,
    "rainfall_mm": 2360.0,
    "weather_station": "Woodlands Ave 9",
    "passenger_volume": 73585,
    "exposure_score": 0.8227
  },
  {
    "station": "PIONEER MRT STATION",
    "lat": 1.337587,
    "lng": 103.697319,
    "n_exits": 0,
    "shelter_ratio": 0.409,
    "covered_length_m": 2341.4,
    "footpath_length_m": 5724.4,
    "rainfall_mm": 2713.1,
    "weather_station": "Nanyang Avenue (NTU)",
    "passenger_volume": 56207,
    "exposure_score": 0.8177
  },
  {
    "station": "BOON KENG MRT STATION",
    "lat": 1.319447,
    "lng": 103.861681,
    "n_exits": 0,
    "shelter_ratio": 0.1876,
    "covered_length_m": 1083.0,
    "footpath_length_m": 5773.6,
    "rainfall_mm": 2535.2,
    "weather_station": "Toa Payoh North",
    "passenger_volume": 44466,
    "exposure_score": 0.8128
  },
  {
    "station": "BEDOK MRT STATION",
    "lat": 1.324011,
    "lng": 103.930173,
    "n_exits": 0,
    "shelter_ratio": 0.2212,
    "covered_length_m": 1121.5,
    "footpath_length_m": 5070.6,
    "rainfall_mm": 2075.5,
    "weather_station": "Tampines Ave 5",
    "passenger_volume": 58333,
    "exposure_score": 0.8079
  },
  {
    "station": "BUONA VISTA MRT STATION",
    "lat": 1.306761,
    "lng": 103.790385,
    "n_exits": 0,
    "shelter_ratio": 0.281,
    "covered_length_m": 2275.1,
    "footpath_length_m": 8097.2,
    "rainfall_mm": 2533.1,
    "weather_station": "Kent Ridge Road (NUS)",
    "passenger_volume": 48339,
    "exposure_score": 0.803
  },
  {
    "station": "KHATIB MRT STATION",
    "lat": 1.417577,
    "lng": 103.833038,
    "n_exits": 0,
    "shelter_ratio": 0.4586,
    "covered_length_m": 2006.0,
    "footpath_length_m": 4374.1,
    "rainfall_mm": 2543.0,
    "weather_station": "Sembawang",
    "passenger_volume": 63218,
    "exposure_score": 0.798
  },
  {
    "station": "ALJUNIED MRT STATION",
    "lat": 1.316432,
    "lng": 103.882906,
    "n_exits": 0,
    "shelter_ratio": 0.2,
    "covered_length_m": 2055.7,
    "footpath_length_m": 10281.0,
    "rainfall_mm": 2425.3,
    "weather_station": "Kim Chuan Road",
    "passenger_volume": 44312,
    "exposure_score": 0.7931
  },
  {
    "station": "CHANGI AIRPORT MRT STATION",
    "lat": 1.357308,
    "lng": 103.988371,
    "n_exits": 0,
    "shelter_ratio": 0.0,
    "covered_length_m": 0.0,
    "footpath_length_m": 0.0,
    "rainfall_mm": 2010.1,
    "weather_station": "Changi",
    "passenger_volume": 43279,
    "exposure_score": 0.7882
  },
  {
    "station": "BUKIT BATOK MRT STATION",
    "lat": 1.348997,
    "lng": 103.749541,
    "n_exits": 0,
    "shelter_ratio": 0.5047,
    "covered_length_m": 2883.9,
    "footpath_length_m": 5713.7,
    "rainfall_mm": 2599.9,
    "weather_station": "Clementi Road",
    "passenger_volume": 54888,
    "exposure_score": 0.7833
  },
  {
    "station": "PROMENADE MRT STATION",
    "lat": 1.293159,
    "lng": 103.860963,
    "n_exits": 0,
    "shelter_ratio": 0.0169,
    "covered_length_m": 89.9,
    "footpath_length_m": 5306.3,
    "rainfall_mm": 2114.0,
    "weather_station": "Kampong Bahru Road",
    "passenger_volume": 36286,
    "exposure_score": 0.7783
  },
  {
    "station": "KENT RIDGE MRT STATION",
    "lat": 1.293401,
    "lng": 103.784498,
    "n_exits": 0,
    "shelter_ratio": 0.2768,
    "covered_length_m": 1387.4,
    "footpath_length_m": 5012.0,
    "rainfall_mm": 2533.1,
    "weather_station": "Kent Ridge Road (NUS)",
    "passenger_volume": 38521,
    "exposure_score": 0.7734
  },
  {
    "station": "YEW TEE MRT STATION",
    "lat": 1.39755,
    "lng": 103.747402,
    "n_exits": 0,
    "shelter_ratio": 0.5349,
    "covered_length_m": 4289.3,
    "footpath_length_m": 8019.4,
    "rainfall_mm": 2677.0,
    "weather_station": "Mandai Lake Road",
    "passenger_volume": 54464,
    "exposure_score": 0.7685
  },
  {
    "station": "YIO CHU KANG MRT STATION",
    "lat": 1.381758,
    "lng": 103.844801,
    "n_exits": 0,
    "shelter_ratio": 0.27,
    "covered_length_m": 1156.2,
    "footpath_length_m": 4282.8,
    "rainfall_mm": 2550.4,
    "weather_station": "Ang Mo Kio Ave 5",
    "passenger_volume": 36171,
    "exposure_score": 0.7635
  },
  {
    "station": "TIONG BAHRU MRT STATION",
    "lat": 1.28622,
    "lng": 103.827034,
    "n_exits": 0,
    "shelter_ratio": 0.2869,
    "covered_length_m": 2371.9,
    "footpath_length_m": 8266.2,
    "rainfall_mm": 2114.0,
    "weather_station": "Kampong Bahru Road",
    "passenger_volume": 46638,
    "exposure_score": 0.7586
  },
  {
    "station": "LAVENDER MRT STATION",
    "lat": 1.307372,
    "lng": 103.862838,
    "n_exits": 0,
    "shelter_ratio": 0.2454,
    "covered_length_m": 2147.6,
    "footpath_length_m": 8750.2,
    "rainfall_mm": 2535.2,
    "weather_station": "Toa Payoh North",
    "passenger_volume": 34424,
    "exposure_score": 0.7537
  },
  {
    "station": "BEAUTY WORLD MRT STATION",
    "lat": 1.341204,
    "lng": 103.775819,
    "n_exits": 0,
    "shelter_ratio": 0.1537,
    "covered_length_m": 1487.3,
    "footpath_length_m": 9679.0,
    "rainfall_mm": 2599.9,
    "weather_station": "Clementi Road",
    "passenger_volume": 29266,
    "exposure_score": 0.7488
  },
  {
    "station": "TAI SENG MRT STATION",
    "lat": 1.335453,
    "lng": 103.888164,
    "n_exits": 0,
    "shelter_ratio": 0.1242,
    "covered_length_m": 980.8,
    "footpath_length_m": 7899.6,
    "rainfall_mm": 2425.3,
    "weather_station": "Kim Chuan Road",
    "passenger_volume": 30723,
    "exposure_score": 0.7438
  },
  {
    "station": "BRADDELL MRT STATION",
    "lat": 1.340444,
    "lng": 103.8468,
    "n_exits": 0,
    "shelter_ratio": 0.0795,
    "covered_length_m": 337.0,
    "footpath_length_m": 4236.7,
    "rainfall_mm": 2535.2,
    "weather_station": "Toa Payoh North",
    "passenger_volume": 27090,
    "exposure_score": 0.7389
  },
  {
    "station": "BUKIT GOMBAK MRT STATION",
    "lat": 1.358672,
    "lng": 103.75191,
    "n_exits": 0,
    "shelter_ratio": 0.3709,
    "covered_length_m": 1932.7,
    "footpath_length_m": 5210.5,
    "rainfall_mm": 2599.9,
    "weather_station": "Clementi Road",
    "passenger_volume": 37956,
    "exposure_score": 0.734
  },
  {
    "station": "DOWNTOWN MRT STATION",
    "lat": 1.279441,
    "lng": 103.852851,
    "n_exits": 0,
    "shelter_ratio": 0.0535,
    "covered_length_m": 485.3,
    "footpath_length_m": 9074.8,
    "rainfall_mm": 2114.0,
    "weather_station": "Kampong Bahru Road",
    "passenger_volume": 32840,
    "exposure_score": 0.7291
  },
  {
    "station": "QUEENSTOWN MRT STATION",
    "lat": 1.294611,
    "lng": 103.806045,
    "n_exits": 0,
    "shelter_ratio": 0.2298,
    "covered_length_m": 1651.3,
    "footpath_length_m": 7184.5,
    "rainfall_mm": 2533.1,
    "weather_station": "Kent Ridge Road (NUS)",
    "passenger_volume": 30923,
    "exposure_score": 0.7241
  },
  {
    "station": "JOO KOON MRT STATION",
    "lat": 1.327717,
    "lng": 103.678387,
    "n_exits": 0,
    "shelter_ratio": 0.2699,
    "covered_length_m": 1470.0,
    "footpath_length_m": 5445.7,
    "rainfall_mm": 2713.1,
    "weather_station": "Nanyang Avenue (NTU)",
    "passenger_volume": 29543,
    "exposure_score": 0.7192
  },
  {
    "station": "BUANGKOK MRT STATION",
    "lat": 1.382772,
    "lng": 103.893092,
    "n_exits": 0,
    "shelter_ratio": 0.4006,
    "covered_length_m": 2532.5,
    "footpath_length_m": 6321.9,
    "rainfall_mm": 2352.0,
    "weather_station": "Punggol Central",
    "passenger_volume": 42127,
    "exposure_score": 0.7143
  },
  {
    "station": "PASIR RIS MRT STATION",
    "lat": 1.372952,
    "lng": 103.949258,
    "n_exits": 0,
    "shelter_ratio": 0.2479,
    "covered_length_m": 1707.6,
    "footpath_length_m": 6887.3,
    "rainfall_mm": 1670.2,
    "weather_station": "Pasir Ris Road",
    "passenger_volume": 54371,
    "exposure_score": 0.7094
  },
  {
    "station": "MARSILING MRT STATION",
    "lat": 1.432565,
    "lng": 103.774194,
    "n_exits": 0,
    "shelter_ratio": 0.3142,
    "covered_length_m": 1896.1,
    "footpath_length_m": 6034.9,
    "rainfall_mm": 2360.0,
    "weather_station": "Woodlands Ave 9",
    "passenger_volume": 35828,
    "exposure_score": 0.7044
  },
  {
    "station": "WOODLEIGH MRT STATION",
    "lat": 1.339207,
    "lng": 103.870809,
    "n_exits": 0,
    "shelter_ratio": 0.2077,
    "covered_length_m": 1110.1,
    "footpath_length_m": 5345.0,
    "rainfall_mm": 2425.3,
    "weather_station": "Kim Chuan Road",
    "passenger_volume": 28890,
    "exposure_score": 0.6995
  },
  {
    "station": "MAYFLOWER MRT STATION",
    "lat": 1.372103,
    "lng": 103.836791,
    "n_exits": 0,
    "shelter_ratio": 0.0625,
    "covered_length_m": 424.3,
    "footpath_length_m": 6788.8,
    "rainfall_mm": 2550.4,
    "weather_station": "Ang Mo Kio Ave 5",
    "passenger_volume": 22757,
    "exposure_score": 0.6946
  },
  {
    "station": "POTONG PASIR MRT STATION",
    "lat": 1.331387,
    "lng": 103.86907,
    "n_exits": 0,
    "shelter_ratio": 0.3087,
    "covered_length_m": 2493.7,
    "footpath_length_m": 8077.5,
    "rainfall_mm": 2535.2,
    "weather_station": "Toa Payoh North",
    "passenger_volume": 30853,
    "exposure_score": 0.6897
  },
  {
    "station": "MACPHERSON MRT STATION",
    "lat": 1.326248,
    "lng": 103.889878,
    "n_exits": 0,
    "shelter_ratio": 0.28,
    "covered_length_m": 1937.8,
    "footpath_length_m": 6921.7,
    "rainfall_mm": 2425.3,
    "weather_station": "Kim Chuan Road",
    "passenger_volume": 31281,
    "exposure_score": 0.6847
  },
  {
    "station": "EUNOS MRT STATION",
    "lat": 1.319779,
    "lng": 103.903362,
    "n_exits": 0,
    "shelter_ratio": 0.2113,
    "covered_length_m": 1607.3,
    "footpath_length_m": 7608.4,
    "rainfall_mm": 2425.3,
    "weather_station": "Kim Chuan Road",
    "passenger_volume": 27928,
    "exposure_score": 0.6798
  },
  {
    "station": "ONE-NORTH MRT STATION",
    "lat": 1.299656,
    "lng": 103.787394,
    "n_exits": 0,
    "shelter_ratio": 0.0749,
    "covered_length_m": 575.9,
    "footpath_length_m": 7694.0,
    "rainfall_mm": 2533.1,
    "weather_station": "Kent Ridge Road (NUS)",
    "passenger_volume": 22428,
    "exposure_score": 0.6749
  },
  {
    "station": "COMMONWEALTH MRT STATION",
    "lat": 1.302448,
    "lng": 103.798291,
    "n_exits": 0,
    "shelter_ratio": 0.1828,
    "covered_length_m": 1408.1,
    "footpath_length_m": 7703.1,
    "rainfall_mm": 2533.1,
    "weather_station": "Kent Ridge Road (NUS)",
    "passenger_volume": 25154,
    "exposure_score": 0.67
  },
  {
    "station": "JALAN BESAR MRT STATION",
    "lat": 1.30538,
    "lng": 103.855435,
    "n_exits": 0,
    "shelter_ratio": 0.0973,
    "covered_length_m": 1440.5,
    "footpath_length_m": 14800.8,
    "rainfall_mm": 2535.2,
    "weather_station": "Toa Payoh North",
    "passenger_volume": 22441,
    "exposure_score": 0.665
  },
  {
    "station": "WOODLANDS SOUTH MRT STATION",
    "lat": 1.427095,
    "lng": 103.793896,
    "n_exits": 0,
    "shelter_ratio": 0.0402,
    "covered_length_m": 178.5,
    "footpath_length_m": 4436.5,
    "rainfall_mm": 2360.0,
    "weather_station": "Woodlands Ave 9",
    "passenger_volume": 22876,
    "exposure_score": 0.6601
  },
  {
    "station": "TANAH MERAH MRT STATION",
    "lat": 1.327254,
    "lng": 103.946548,
    "n_exits": 0,
    "shelter_ratio": 0.0965,
    "covered_length_m": 823.8,
    "footpath_length_m": 8538.0,
    "rainfall_mm": 2075.5,
    "weather_station": "Tampines Ave 5",
    "passenger_volume": 28862,
    "exposure_score": 0.6552
  },
  {
    "station": "TAMPINES EAST MRT STATION",
    "lat": 1.356213,
    "lng": 103.954805,
    "n_exits": 0,
    "shelter_ratio": 0.2376,
    "covered_length_m": 1413.3,
    "footpath_length_m": 5947.4,
    "rainfall_mm": 2075.5,
    "weather_station": "Tampines Ave 5",
    "passenger_volume": 33656,
    "exposure_score": 0.6502
  },
  {
    "station": "CLARKE QUAY MRT STATION",
    "lat": 1.288542,
    "lng": 103.846605,
    "n_exits": 0,
    "shelter_ratio": 0.1263,
    "covered_length_m": 1053.7,
    "footpath_length_m": 8340.9,
    "rainfall_mm": 2114.0,
    "weather_station": "Kampong Bahru Road",
    "passenger_volume": 28095,
    "exposure_score": 0.6453
  },
  {
    "station": "ROCHOR MRT STATION",
    "lat": 1.303928,
    "lng": 103.852439,
    "n_exits": 0,
    "shelter_ratio": 0.1189,
    "covered_length_m": 1544.2,
    "footpath_length_m": 12991.8,
    "rainfall_mm": 2535.2,
    "weather_station": "Toa Payoh North",
    "passenger_volume": 21827,
    "exposure_score": 0.6404
  },
  {
    "station": "EXPO MRT STATION",
    "lat": 1.334971,
    "lng": 103.962047,
    "n_exits": 0,
    "shelter_ratio": 0.1307,
    "covered_length_m": 728.1,
    "footpath_length_m": 5571.0,
    "rainfall_mm": 2075.5,
    "weather_station": "Tampines Ave 5",
    "passenger_volume": 28028,
    "exposure_score": 0.6355
  },
  {
    "station": "MARINE PARADE MRT STATION",
    "lat": 1.303648,
    "lng": 103.906684,
    "n_exits": 0,
    "shelter_ratio": 0.123,
    "covered_length_m": 996.6,
    "footpath_length_m": 8105.3,
    "rainfall_mm": 2425.3,
    "weather_station": "Kim Chuan Road",
    "passenger_volume": 22275,
    "exposure_score": 0.6305
  },
  {
    "station": "KEMBANGAN MRT STATION",
    "lat": 1.321038,
    "lng": 103.912948,
    "n_exits": 0,
    "shelter_ratio": 0.0825,
    "covered_length_m": 873.0,
    "footpath_length_m": 10578.1,
    "rainfall_mm": 2425.3,
    "weather_station": "Kim Chuan Road",
    "passenger_volume": 21034,
    "exposure_score": 0.6256
  },
  {
    "station": "KALLANG MRT STATION",
    "lat": 1.311397,
    "lng": 103.871315,
    "n_exits": 0,
    "shelter_ratio": 0.1696,
    "covered_length_m": 1023.5,
    "footpath_length_m": 6033.6,
    "rainfall_mm": 2425.3,
    "weather_station": "Kim Chuan Road",
    "passenger_volume": 23143,
    "exposure_score": 0.6207
  },
  {
    "station": "UPPER THOMSON MRT STATION",
    "lat": 1.354405,
    "lng": 103.832924,
    "n_exits": 0,
    "shelter_ratio": 0.0653,
    "covered_length_m": 725.4,
    "footpath_length_m": 11114.7,
    "rainfall_mm": 2535.2,
    "weather_station": "Toa Payoh North",
    "passenger_volume": 18552,
    "exposure_score": 0.6158
  },
  {
    "station": "HOLLAND VILLAGE MRT STATION",
    "lat": 1.311946,
    "lng": 103.796233,
    "n_exits": 0,
    "shelter_ratio": 0.088,
    "covered_length_m": 822.0,
    "footpath_length_m": 9336.4,
    "rainfall_mm": 2533.1,
    "weather_station": "Kent Ridge Road (NUS)",
    "passenger_volume": 19030,
    "exposure_score": 0.6108
  },
  {
    "station": "MAXWELL MRT STATION",
    "lat": 1.280593,
    "lng": 103.843922,
    "n_exits": 0,
    "shelter_ratio": 0.0673,
    "covered_length_m": 885.5,
    "footpath_length_m": 13157.7,
    "rainfall_mm": 2114.0,
    "weather_station": "Kampong Bahru Road",
    "passenger_volume": 22593,
    "exposure_score": 0.6059
  },
  {
    "station": "SIMEI MRT STATION",
    "lat": 1.343197,
    "lng": 103.953377,
    "n_exits": 0,
    "shelter_ratio": 0.3496,
    "covered_length_m": 2167.3,
    "footpath_length_m": 6199.1,
    "rainfall_mm": 2075.5,
    "weather_station": "Tampines Ave 5",
    "passenger_volume": 32439,
    "exposure_score": 0.601
  },
  {
    "station": "REDHILL MRT STATION",
    "lat": 1.28962,
    "lng": 103.81679,
    "n_exits": 0,
    "shelter_ratio": 0.4124,
    "covered_length_m": 3511.7,
    "footpath_length_m": 8516.1,
    "rainfall_mm": 2114.0,
    "weather_station": "Kampong Bahru Road",
    "passenger_volume": 33774,
    "exposure_score": 0.5961
  },
  {
    "station": "SHENTON WAY MRT STATION",
    "lat": 1.27762,
    "lng": 103.850627,
    "n_exits": 0,
    "shelter_ratio": 0.0437,
    "covered_length_m": 434.4,
    "footpath_length_m": 9947.4,
    "rainfall_mm": 2114.0,
    "weather_station": "Kampong Bahru Road",
    "passenger_volume": 20621,
    "exposure_score": 0.5911
  },
  {
    "station": "DOVER MRT STATION",
    "lat": 1.311395,
    "lng": 103.778649,
    "n_exits": 0,
    "shelter_ratio": 0.2546,
    "covered_length_m": 1073.6,
    "footpath_length_m": 4216.1,
    "rainfall_mm": 2533.1,
    "weather_station": "Kent Ridge Road (NUS)",
    "passenger_volume": 20157,
    "exposure_score": 0.5862
  },
  {
    "station": "KAKI BUKIT MRT STATION",
    "lat": 1.334963,
    "lng": 103.908455,
    "n_exits": 0,
    "shelter_ratio": 0.2735,
    "covered_length_m": 2107.6,
    "footpath_length_m": 7707.1,
    "rainfall_mm": 2425.3,
    "weather_station": "Kim Chuan Road",
    "passenger_volume": 21294,
    "exposure_score": 0.5813
  },
  {
    "station": "GREAT WORLD MRT STATION",
    "lat": 1.294532,
    "lng": 103.833447,
    "n_exits": 0,
    "shelter_ratio": 0.0702,
    "covered_length_m": 500.5,
    "footpath_length_m": 7130.3,
    "rainfall_mm": 2114.0,
    "weather_station": "Kampong Bahru Road",
    "passenger_volume": 18472,
    "exposure_score": 0.5764
  },
  {
    "station": "BENCOOLEN MRT STATION",
    "lat": 1.298727,
    "lng": 103.850245,
    "n_exits": 0,
    "shelter_ratio": 0.0825,
    "covered_length_m": 931.4,
    "footpath_length_m": 11288.9,
    "rainfall_mm": 2114.0,
    "weather_station": "Kampong Bahru Road",
    "passenger_volume": 18284,
    "exposure_score": 0.5714
  },
  {
    "station": "LORONG CHUAN MRT STATION",
    "lat": 1.35162,
    "lng": 103.864144,
    "n_exits": 0,
    "shelter_ratio": 0.1366,
    "covered_length_m": 873.5,
    "footpath_length_m": 6394.8,
    "rainfall_mm": 2535.2,
    "weather_station": "Toa Payoh North",
    "passenger_volume": 14219,
    "exposure_score": 0.5665
  },
  {
    "station": "TUAS LINK MRT STATION",
    "lat": 1.34038,
    "lng": 103.636819,
    "n_exits": 0,
    "shelter_ratio": 0.0,
    "covered_length_m": 0.0,
    "footpath_length_m": 2493.4,
    "rainfall_mm": 2713.1,
    "weather_station": "Nanyang Avenue (NTU)",
    "passenger_volume": 11116,
    "exposure_score": 0.5616
  },
  {
    "station": "UBI MRT STATION",
    "lat": 1.329955,
    "lng": 103.899249,
    "n_exits": 0,
    "shelter_ratio": 0.294,
    "covered_length_m": 2044.0,
    "footpath_length_m": 6953.1,
    "rainfall_mm": 2425.3,
    "weather_station": "Kim Chuan Road",
    "passenger_volume": 18076,
    "exposure_score": 0.5567
  },
  {
    "station": "MARYMOUNT MRT STATION",
    "lat": 1.348777,
    "lng": 103.839413,
    "n_exits": 0,
    "shelter_ratio": 0.1661,
    "covered_length_m": 1303.2,
    "footpath_length_m": 7845.6,
    "rainfall_mm": 2535.2,
    "weather_station": "Toa Payoh North",
    "passenger_volume": 14071,
    "exposure_score": 0.5517
  },
  {
    "station": "BARTLEY MRT STATION",
    "lat": 1.342847,
    "lng": 103.879725,
    "n_exits": 0,
    "shelter_ratio": 0.1571,
    "covered_length_m": 1165.6,
    "footpath_length_m": 7419.1,
    "rainfall_mm": 2425.3,
    "weather_station": "Kim Chuan Road",
    "passenger_volume": 14722,
    "exposure_score": 0.5468
  },
  {
    "station": "STADIUM MRT STATION",
    "lat": 1.302854,
    "lng": 103.875348,
    "n_exits": 0,
    "shelter_ratio": 0.0465,
    "covered_length_m": 141.1,
    "footpath_length_m": 3035.5,
    "rainfall_mm": 2425.3,
    "weather_station": "Kim Chuan Road",
    "passenger_volume": 12916,
    "exposure_score": 0.5419
  },
  {
    "station": "WOODLANDS NORTH MRT STATION",
    "lat": 1.44835,
    "lng": 103.785675,
    "n_exits": 0,
    "shelter_ratio": 0.0763,
    "covered_length_m": 129.8,
    "footpath_length_m": 1701.2,
    "rainfall_mm": 2360.0,
    "weather_station": "Woodlands Ave 9",
    "passenger_volume": 13752,
    "exposure_score": 0.5369
  },
  {
    "station": "HAVELOCK MRT STATION",
    "lat": 1.28845,
    "lng": 103.833574,
    "n_exits": 0,
    "shelter_ratio": 0.0354,
    "covered_length_m": 322.4,
    "footpath_length_m": 9101.0,
    "rainfall_mm": 2114.0,
    "weather_station": "Kampong Bahru Road",
    "passenger_volume": 15083,
    "exposure_score": 0.532
  },
  {
    "station": "STEVENS MRT STATION",
    "lat": 1.319666,
    "lng": 103.825752,
    "n_exits": 0,
    "shelter_ratio": 0.3074,
    "covered_length_m": 2878.3,
    "footpath_length_m": 9363.9,
    "rainfall_mm": 2535.2,
    "weather_station": "Toa Payoh North",
    "passenger_volume": 16376,
    "exposure_score": 0.5271
  },
  {
    "station": "BOTANIC GARDENS MRT STATION",
    "lat": 1.322229,
    "lng": 103.815469,
    "n_exits": 0,
    "shelter_ratio": 0.195,
    "covered_length_m": 1302.7,
    "footpath_length_m": 6682.0,
    "rainfall_mm": 2599.9,
    "weather_station": "Clementi Road",
    "passenger_volume": 13456,
    "exposure_score": 0.5222
  },
  {
    "station": "CALDECOTT MRT STATION",
    "lat": 1.337489,
    "lng": 103.839837,
    "n_exits": 0,
    "shelter_ratio": 0.3009,
    "covered_length_m": 1320.5,
    "footpath_length_m": 4388.3,
    "rainfall_mm": 2535.2,
    "weather_station": "Toa Payoh North",
    "passenger_volume": 15609,
    "exposure_score": 0.5172
  },
  {
    "station": "TUAS WEST ROAD MRT STATION",
    "lat": 1.329982,
    "lng": 103.639628,
    "n_exits": 0,
    "shelter_ratio": 0.0,
    "covered_length_m": 0.0,
    "footpath_length_m": 4444.4,
    "rainfall_mm": 2543.6,
    "weather_station": "Tuas South Ave 3",
    "passenger_volume": 10720,
    "exposure_score": 0.5123
  },
  {
    "station": "HAW PAR VILLA MRT STATION",
    "lat": 1.282503,
    "lng": 103.781821,
    "n_exits": 0,
    "shelter_ratio": 0.077,
    "covered_length_m": 341.2,
    "footpath_length_m": 4432.5,
    "rainfall_mm": 2533.1,
    "weather_station": "Kent Ridge Road (NUS)",
    "passenger_volume": 11487,
    "exposure_score": 0.5074
  },
  {
    "station": "LENTOR MRT STATION",
    "lat": 1.384931,
    "lng": 103.836347,
    "n_exits": 0,
    "shelter_ratio": 0.165,
    "covered_length_m": 1311.2,
    "footpath_length_m": 7947.4,
    "rainfall_mm": 2550.4,
    "weather_station": "Ang Mo Kio Ave 5",
    "passenger_volume": 11937,
    "exposure_score": 0.5025
  },
  {
    "station": "MARINE TERRACE MRT STATION",
    "lat": 1.306786,
    "lng": 103.915316,
    "n_exits": 0,
    "shelter_ratio": 0.0929,
    "covered_length_m": 534.5,
    "footpath_length_m": 5751.1,
    "rainfall_mm": 2425.3,
    "weather_station": "Kim Chuan Road",
    "passenger_volume": 11715,
    "exposure_score": 0.4975
  },
  {
    "station": "BRIGHT HILL MRT STATION",
    "lat": 1.363267,
    "lng": 103.832937,
    "n_exits": 0,
    "shelter_ratio": 0.2158,
    "covered_length_m": 1194.2,
    "footpath_length_m": 5534.4,
    "rainfall_mm": 2550.4,
    "weather_station": "Ang Mo Kio Ave 5",
    "passenger_volume": 12666,
    "exposure_score": 0.4926
  },
  {
    "station": "SPRINGLEAF MRT STATION",
    "lat": 1.398108,
    "lng": 103.817924,
    "n_exits": 0,
    "shelter_ratio": 0.0611,
    "covered_length_m": 302.0,
    "footpath_length_m": 4940.0,
    "rainfall_mm": 2543.0,
    "weather_station": "Sembawang",
    "passenger_volume": 10546,
    "exposure_score": 0.4877
  },
  {
    "station": "OASIS LRT STATION",
    "lat": 1.402351,
    "lng": 103.912632,
    "n_exits": 0,
    "shelter_ratio": 0.19,
    "covered_length_m": 856.0,
    "footpath_length_m": 4504.6,
    "rainfall_mm": 2352.0,
    "weather_station": "Punggol Central",
    "passenger_volume": 13246,
    "exposure_score": 0.4828
  },
  {
    "station": "PASIR PANJANG MRT STATION",
    "lat": 1.27623,
    "lng": 103.791342,
    "n_exits": 0,
    "shelter_ratio": 0.0404,
    "covered_length_m": 241.3,
    "footpath_length_m": 5964.7,
    "rainfall_mm": 2533.1,
    "weather_station": "Kent Ridge Road (NUS)",
    "passenger_volume": 9810,
    "exposure_score": 0.4778
  },
  {
    "station": "KING ALBERT PARK MRT STATION",
    "lat": 1.335638,
    "lng": 103.783872,
    "n_exits": 0,
    "shelter_ratio": 0.3381,
    "covered_length_m": 2367.9,
    "footpath_length_m": 7004.2,
    "rainfall_mm": 2599.9,
    "weather_station": "Clementi Road",
    "passenger_volume": 13575,
    "exposure_score": 0.4729
  },
  {
    "station": "TAMPINES WEST MRT STATION",
    "lat": 1.345518,
    "lng": 103.938429,
    "n_exits": 0,
    "shelter_ratio": 0.2972,
    "covered_length_m": 1627.3,
    "footpath_length_m": 5475.6,
    "rainfall_mm": 2075.5,
    "weather_station": "Tampines Ave 5",
    "passenger_volume": 17189,
    "exposure_score": 0.468
  },
  {
    "station": "FARRER ROAD MRT STATION",
    "lat": 1.317455,
    "lng": 103.807489,
    "n_exits": 0,
    "shelter_ratio": 0.1262,
    "covered_length_m": 969.4,
    "footpath_length_m": 7680.9,
    "rainfall_mm": 2599.9,
    "weather_station": "Clementi Road",
    "passenger_volume": 10229,
    "exposure_score": 0.4631
  },
  {
    "station": "FERNVALE LRT STATION",
    "lat": 1.391944,
    "lng": 103.87628,
    "n_exits": 0,
    "shelter_ratio": 0.361,
    "covered_length_m": 1540.3,
    "footpath_length_m": 4266.4,
    "rainfall_mm": 2549.3,
    "weather_station": "Seletar",
    "passenger_volume": 14260,
    "exposure_score": 0.4581
  },
  {
    "station": "CORAL EDGE LRT STATION",
    "lat": 1.393926,
    "lng": 103.912564,
    "n_exits": 0,
    "shelter_ratio": 0.1639,
    "covered_length_m": 791.1,
    "footpath_length_m": 4827.6,
    "rainfall_mm": 2352.0,
    "weather_station": "Punggol Central",
    "passenger_volume": 12001,
    "exposure_score": 0.4532
  },
  {
    "station": "TUAS CRESCENT MRT STATION",
    "lat": 1.321053,
    "lng": 103.649063,
    "n_exits": 0,
    "shelter_ratio": 0.0,
    "covered_length_m": 0.0,
    "footpath_length_m": 4165.0,
    "rainfall_mm": 2713.1,
    "weather_station": "Nanyang Avenue (NTU)",
    "passenger_volume": 8310,
    "exposure_score": 0.4483
  },
  {
    "station": "CHINESE GARDEN MRT STATION",
    "lat": 1.342145,
    "lng": 103.732814,
    "n_exits": 0,
    "shelter_ratio": 0.6673,
    "covered_length_m": 3121.7,
    "footpath_length_m": 4678.2,
    "rainfall_mm": 2599.9,
    "weather_station": "Clementi Road",
    "passenger_volume": 26332,
    "exposure_score": 0.4433
  },
  {
    "station": "KADALOOR LRT STATION",
    "lat": 1.399639,
    "lng": 103.916395,
    "n_exits": 0,
    "shelter_ratio": 0.1058,
    "covered_length_m": 450.4,
    "footpath_length_m": 4258.2,
    "rainfall_mm": 2352.0,
    "weather_station": "Punggol Central",
    "passenger_volume": 11146,
    "exposure_score": 0.4384
  },
  {
    "station": "LABRADOR PARK MRT STATION",
    "lat": 1.272323,
    "lng": 103.802928,
    "n_exits": 0,
    "shelter_ratio": 0.0525,
    "covered_length_m": 162.8,
    "footpath_length_m": 3101.8,
    "rainfall_mm": 2114.0,
    "weather_station": "Kampong Bahru Road",
    "passenger_volume": 12086,
    "exposure_score": 0.4335
  },
  {
    "station": "FORT CANNING MRT STATION",
    "lat": 1.292472,
    "lng": 103.844325,
    "n_exits": 0,
    "shelter_ratio": 0.1913,
    "covered_length_m": 1260.9,
    "footpath_length_m": 6589.6,
    "rainfall_mm": 2114.0,
    "weather_station": "Kampong Bahru Road",
    "passenger_volume": 13475,
    "exposure_score": 0.4286
  },
  {
    "station": "BEDOK RESERVOIR MRT STATION",
    "lat": 1.336599,
    "lng": 103.932288,
    "n_exits": 0,
    "shelter_ratio": 0.344,
    "covered_length_m": 2129.8,
    "footpath_length_m": 6191.3,
    "rainfall_mm": 2075.5,
    "weather_station": "Tampines Ave 5",
    "passenger_volume": 16616,
    "exposure_score": 0.4236
  },
  {
    "station": "BEDOK NORTH MRT STATION",
    "lat": 1.334756,
    "lng": 103.917877,
    "n_exits": 0,
    "shelter_ratio": 0.4014,
    "covered_length_m": 1922.9,
    "footpath_length_m": 4790.1,
    "rainfall_mm": 2479.6,
    "weather_station": "Paya Lebar",
    "passenger_volume": 14118,
    "exposure_score": 0.4187
  },
  {
    "station": "HILLVIEW MRT STATION",
    "lat": 1.36234,
    "lng": 103.767429,
    "n_exits": 0,
    "shelter_ratio": 0.3789,
    "covered_length_m": 2890.6,
    "footpath_length_m": 7628.0,
    "rainfall_mm": 2599.9,
    "weather_station": "Clementi Road",
    "passenger_volume": 12357,
    "exposure_score": 0.4138
  },
  {
    "station": "TAN KAH KEE MRT STATION",
    "lat": 1.325871,
    "lng": 103.807331,
    "n_exits": 0,
    "shelter_ratio": 0.2648,
    "covered_length_m": 2653.7,
    "footpath_length_m": 10020.6,
    "rainfall_mm": 2599.9,
    "weather_station": "Clementi Road",
    "passenger_volume": 10433,
    "exposure_score": 0.4089
  },
  {
    "station": "MARINA BAY MRT STATION",
    "lat": 1.275699,
    "lng": 103.854984,
    "n_exits": 0,
    "shelter_ratio": 0.0856,
    "covered_length_m": 454.8,
    "footpath_length_m": 5311.1,
    "rainfall_mm": 2114.0,
    "weather_station": "Kampong Bahru Road",
    "passenger_volume": 10465,
    "exposure_score": 0.4039
  },
  {
    "station": "GARDENS BY THE BAY MRT STATION",
    "lat": 1.279135,
    "lng": 103.867915,
    "n_exits": 0,
    "shelter_ratio": 0.0,
    "covered_length_m": 0.0,
    "footpath_length_m": 4333.6,
    "rainfall_mm": 2114.0,
    "weather_station": "Kampong Bahru Road",
    "passenger_volume": 9539,
    "exposure_score": 0.399
  },
  {
    "station": "SIXTH AVENUE MRT STATION",
    "lat": 1.330785,
    "lng": 103.79732,
    "n_exits": 0,
    "shelter_ratio": 0.1437,
    "covered_length_m": 1272.3,
    "footpath_length_m": 8854.2,
    "rainfall_mm": 2599.9,
    "weather_station": "Clementi Road",
    "passenger_volume": 8342,
    "exposure_score": 0.3941
  },
  {
    "station": "RUMBIA LRT STATION",
    "lat": 1.391564,
    "lng": 103.90589,
    "n_exits": 0,
    "shelter_ratio": 0.2199,
    "covered_length_m": 1315.4,
    "footpath_length_m": 5981.8,
    "rainfall_mm": 2352.0,
    "weather_station": "Punggol Central",
    "passenger_volume": 10357,
    "exposure_score": 0.3892
  },
  {
    "station": "GUL CIRCLE MRT STATION",
    "lat": 1.319564,
    "lng": 103.660594,
    "n_exits": 0,
    "shelter_ratio": 0.0666,
    "covered_length_m": 269.5,
    "footpath_length_m": 4045.9,
    "rainfall_mm": 2713.1,
    "weather_station": "Nanyang Avenue (NTU)",
    "passenger_volume": 7165,
    "exposure_score": 0.3842
  },
  {
    "station": "SAMUDERA LRT STATION",
    "lat": 1.415819,
    "lng": 103.902087,
    "n_exits": 0,
    "shelter_ratio": 0.0,
    "covered_length_m": 0.0,
    "footpath_length_m": 2512.3,
    "rainfall_mm": 2352.0,
    "weather_station": "Punggol Central",
    "passenger_volume": 7961,
    "exposure_score": 0.3793
  },
  {
    "station": "MATTAR MRT STATION",
    "lat": 1.326866,
    "lng": 103.883253,
    "n_exits": 0,
    "shelter_ratio": 0.1046,
    "covered_length_m": 770.0,
    "footpath_length_m": 7361.2,
    "rainfall_mm": 2425.3,
    "weather_station": "Kim Chuan Road",
    "passenger_volume": 8486,
    "exposure_score": 0.3744
  },
  {
    "station": "ESPLANADE MRT STATION",
    "lat": 1.29326,
    "lng": 103.855612,
    "n_exits": 0,
    "shelter_ratio": 0.2019,
    "covered_length_m": 1679.1,
    "footpath_length_m": 8314.7,
    "rainfall_mm": 2114.0,
    "weather_station": "Kampong Bahru Road",
    "passenger_volume": 11332,
    "exposure_score": 0.3695
  },
  {
    "station": "GEYLANG BAHRU MRT STATION",
    "lat": 1.321513,
    "lng": 103.871911,
    "n_exits": 0,
    "shelter_ratio": 0.2474,
    "covered_length_m": 1479.7,
    "footpath_length_m": 5980.5,
    "rainfall_mm": 2425.3,
    "weather_station": "Kim Chuan Road",
    "passenger_volume": 9835,
    "exposure_score": 0.3645
  },
  {
    "station": "NAPIER MRT STATION",
    "lat": 1.306731,
    "lng": 103.819038,
    "n_exits": 0,
    "shelter_ratio": 0.0713,
    "covered_length_m": 256.5,
    "footpath_length_m": 3594.8,
    "rainfall_mm": 2114.0,
    "weather_station": "Kampong Bahru Road",
    "passenger_volume": 9444,
    "exposure_score": 0.3596
  },
  {
    "station": "TECK WHYE LRT STATION",
    "lat": 1.376659,
    "lng": 103.7537,
    "n_exits": 0,
    "shelter_ratio": 0.107,
    "covered_length_m": 637.9,
    "footpath_length_m": 5959.5,
    "rainfall_mm": 2677.0,
    "weather_station": "Mandai Lake Road",
    "passenger_volume": 7160,
    "exposure_score": 0.3547
  },
  {
    "station": "FARMWAY LRT STATION",
    "lat": 1.397162,
    "lng": 103.889383,
    "n_exits": 0,
    "shelter_ratio": 0.2121,
    "covered_length_m": 1058.0,
    "footpath_length_m": 4987.8,
    "rainfall_mm": 2352.0,
    "weather_station": "Punggol Central",
    "passenger_volume": 9406,
    "exposure_score": 0.3498
  },
  {
    "station": "KEAT HONG LRT STATION",
    "lat": 1.378612,
    "lng": 103.749052,
    "n_exits": 0,
    "shelter_ratio": 0.2582,
    "covered_length_m": 1716.5,
    "footpath_length_m": 6646.8,
    "rainfall_mm": 2762.6,
    "weather_station": "Tengah",
    "passenger_volume": 7928,
    "exposure_score": 0.3448
  },
  {
    "station": "MOUNTBATTEN MRT STATION",
    "lat": 1.306194,
    "lng": 103.882547,
    "n_exits": 0,
    "shelter_ratio": 0.2703,
    "covered_length_m": 2264.8,
    "footpath_length_m": 8378.4,
    "rainfall_mm": 2425.3,
    "weather_station": "Kim Chuan Road",
    "passenger_volume": 9521,
    "exposure_score": 0.3399
  },
  {
    "station": "ORCHARD BOULEVARD MRT STATION",
    "lat": 1.302633,
    "lng": 103.823858,
    "n_exits": 0,
    "shelter_ratio": 0.0113,
    "covered_length_m": 100.3,
    "footpath_length_m": 8880.1,
    "rainfall_mm": 2114.0,
    "weather_station": "Kampong Bahru Road",
    "passenger_volume": 8344,
    "exposure_score": 0.335
  },
  {
    "station": "UPPER CHANGI MRT STATION",
    "lat": 1.34174,
    "lng": 103.961473,
    "n_exits": 0,
    "shelter_ratio": 0.1712,
    "covered_length_m": 1160.5,
    "footpath_length_m": 6779.4,
    "rainfall_mm": 2075.5,
    "weather_station": "Tampines Ave 5",
    "passenger_volume": 10092,
    "exposure_score": 0.33
  },
  {
    "station": "DAKOTA MRT STATION",
    "lat": 1.308375,
    "lng": 103.888668,
    "n_exits": 0,
    "shelter_ratio": 0.2159,
    "covered_length_m": 1533.7,
    "footpath_length_m": 7104.2,
    "rainfall_mm": 2425.3,
    "weather_station": "Kim Chuan Road",
    "passenger_volume": 8454,
    "exposure_score": 0.3251
  },
  {
    "station": "THANGGAM LRT STATION",
    "lat": 1.397437,
    "lng": 103.875655,
    "n_exits": 0,
    "shelter_ratio": 0.0137,
    "covered_length_m": 73.1,
    "footpath_length_m": 5346.6,
    "rainfall_mm": 2549.3,
    "weather_station": "Seletar",
    "passenger_volume": 6257,
    "exposure_score": 0.3202
  },
  {
    "station": "BRAS BASAH MRT STATION",
    "lat": 1.296827,
    "lng": 103.850656,
    "n_exits": 0,
    "shelter_ratio": 0.0631,
    "covered_length_m": 683.4,
    "footpath_length_m": 10823.9,
    "rainfall_mm": 2114.0,
    "weather_station": "Kampong Bahru Road",
    "passenger_volume": 8302,
    "exposure_score": 0.3153
  },
  {
    "station": "BENDEMEER MRT STATION",
    "lat": 1.313645,
    "lng": 103.862891,
    "n_exits": 0,
    "shelter_ratio": 0.3137,
    "covered_length_m": 2902.3,
    "footpath_length_m": 9251.3,
    "rainfall_mm": 2535.2,
    "weather_station": "Toa Payoh North",
    "passenger_volume": 8635,
    "exposure_score": 0.3103
  },
  {
    "station": "KATONG PARK MRT STATION",
    "lat": 1.297822,
    "lng": 103.886182,
    "n_exits": 0,
    "shelter_ratio": 0.0368,
    "covered_length_m": 180.4,
    "footpath_length_m": 4903.6,
    "rainfall_mm": 2425.3,
    "weather_station": "Kim Chuan Road",
    "passenger_volume": 6501,
    "exposure_score": 0.3054
  },
  {
    "station": "MERIDIAN LRT STATION",
    "lat": 1.396852,
    "lng": 103.908991,
    "n_exits": 0,
    "shelter_ratio": 0.4255,
    "covered_length_m": 1986.9,
    "footpath_length_m": 4669.4,
    "rainfall_mm": 2352.0,
    "weather_station": "Punggol Central",
    "passenger_volume": 10650,
    "exposure_score": 0.3005
  },
  {
    "station": "TANJONG RHU MRT STATION",
    "lat": 1.297215,
    "lng": 103.873452,
    "n_exits": 0,
    "shelter_ratio": 0.0,
    "covered_length_m": 0.0,
    "footpath_length_m": 3576.0,
    "rainfall_mm": 2425.3,
    "weather_station": "Kim Chuan Road",
    "passenger_volume": 5872,
    "exposure_score": 0.2956
  },
  {
    "station": "KANGKAR LRT STATION",
    "lat": 1.384031,
    "lng": 103.902258,
    "n_exits": 0,
    "shelter_ratio": 0.116,
    "covered_length_m": 745.1,
    "footpath_length_m": 6423.7,
    "rainfall_mm": 2352.0,
    "weather_station": "Punggol Central",
    "passenger_volume": 6873,
    "exposure_score": 0.2906
  },
  {
    "station": "SOO TECK LRT STATION",
    "lat": 1.40521,
    "lng": 103.897234,
    "n_exits": 0,
    "shelter_ratio": 0.0289,
    "covered_length_m": 166.0,
    "footpath_length_m": 5752.0,
    "rainfall_mm": 2352.0,
    "weather_station": "Punggol Central",
    "passenger_volume": 6222,
    "exposure_score": 0.2857
  },
  {
    "station": "NIBONG LRT STATION",
    "lat": 1.411756,
    "lng": 103.900299,
    "n_exits": 0,
    "shelter_ratio": 0.0046,
    "covered_length_m": 17.5,
    "footpath_length_m": 3834.5,
    "rainfall_mm": 2352.0,
    "weather_station": "Punggol Central",
    "passenger_volume": 6034,
    "exposure_score": 0.2808
  },
  {
    "station": "COMPASSVALE LRT STATION",
    "lat": 1.394479,
    "lng": 103.900555,
    "n_exits": 0,
    "shelter_ratio": 0.2936,
    "covered_length_m": 1546.6,
    "footpath_length_m": 5267.4,
    "rainfall_mm": 2352.0,
    "weather_station": "Punggol Central",
    "passenger_volume": 8433,
    "exposure_score": 0.2759
  },
  {
    "station": "SEGAR LRT STATION",
    "lat": 1.387756,
    "lng": 103.76966,
    "n_exits": 0,
    "shelter_ratio": 0.26,
    "covered_length_m": 1122.1,
    "footpath_length_m": 4316.1,
    "rainfall_mm": 2677.0,
    "weather_station": "Mandai Lake Road",
    "passenger_volume": 6783,
    "exposure_score": 0.2709
  },
  {
    "station": "JELAPANG LRT STATION",
    "lat": 1.386697,
    "lng": 103.764501,
    "n_exits": 0,
    "shelter_ratio": 0.0834,
    "covered_length_m": 435.3,
    "footpath_length_m": 5220.0,
    "rainfall_mm": 2677.0,
    "weather_station": "Mandai Lake Road",
    "passenger_volume": 5468,
    "exposure_score": 0.266
  },
  {
    "station": "DAMAI LRT STATION",
    "lat": 1.405316,
    "lng": 103.908504,
    "n_exits": 0,
    "shelter_ratio": 0.2461,
    "covered_length_m": 1085.3,
    "footpath_length_m": 4409.8,
    "rainfall_mm": 2352.0,
    "weather_station": "Punggol Central",
    "passenger_volume": 7538,
    "exposure_score": 0.2611
  },
  {
    "station": "TANJONG KATONG MRT STATION",
    "lat": 1.299364,
    "lng": 103.897451,
    "n_exits": 0,
    "shelter_ratio": 0.0164,
    "covered_length_m": 116.5,
    "footpath_length_m": 7125.6,
    "rainfall_mm": 2425.3,
    "weather_station": "Kim Chuan Road",
    "passenger_volume": 5525,
    "exposure_score": 0.2562
  },
  {
    "station": "LAYAR LRT STATION",
    "lat": 1.392093,
    "lng": 103.880158,
    "n_exits": 0,
    "shelter_ratio": 0.2771,
    "covered_length_m": 936.5,
    "footpath_length_m": 3379.9,
    "rainfall_mm": 2549.3,
    "weather_station": "Seletar",
    "passenger_volume": 6849,
    "exposure_score": 0.2512
  },
  {
    "station": "SIGLAP MRT STATION",
    "lat": 1.309877,
    "lng": 103.929879,
    "n_exits": 0,
    "shelter_ratio": 0.0224,
    "covered_length_m": 122.4,
    "footpath_length_m": 5460.4,
    "rainfall_mm": 1820.0,
    "weather_station": "East Coast Park",
    "passenger_volume": 7948,
    "exposure_score": 0.2463
  },
  {
    "station": "TELOK BLANGAH MRT STATION",
    "lat": 1.270582,
    "lng": 103.80974,
    "n_exits": 0,
    "shelter_ratio": 0.1976,
    "covered_length_m": 780.8,
    "footpath_length_m": 3951.7,
    "rainfall_mm": 2114.0,
    "weather_station": "Kampong Bahru Road",
    "passenger_volume": 7377,
    "exposure_score": 0.2414
  },
  {
    "station": "NICOLL HIGHWAY MRT STATION",
    "lat": 1.299803,
    "lng": 103.863633,
    "n_exits": 0,
    "shelter_ratio": 0.1326,
    "covered_length_m": 806.6,
    "footpath_length_m": 6082.7,
    "rainfall_mm": 2114.0,
    "weather_station": "Kampong Bahru Road",
    "passenger_volume": 6683,
    "exposure_score": 0.2365
  },
  {
    "station": "FAJAR LRT STATION",
    "lat": 1.384533,
    "lng": 103.770838,
    "n_exits": 0,
    "shelter_ratio": 0.3128,
    "covered_length_m": 1335.6,
    "footpath_length_m": 4270.2,
    "rainfall_mm": 2677.0,
    "weather_station": "Mandai Lake Road",
    "passenger_volume": 6051,
    "exposure_score": 0.2315
  },
  {
    "station": "MARINA SOUTH PIER MRT STATION",
    "lat": 1.271377,
    "lng": 103.862911,
    "n_exits": 0,
    "shelter_ratio": 0.0384,
    "covered_length_m": 128.8,
    "footpath_length_m": 3355.9,
    "rainfall_mm": 2114.0,
    "weather_station": "Kampong Bahru Road",
    "passenger_volume": 5738,
    "exposure_score": 0.2266
  },
  {
    "station": "KUPANG LRT STATION",
    "lat": 1.398198,
    "lng": 103.881374,
    "n_exits": 0,
    "shelter_ratio": 0.0413,
    "covered_length_m": 172.4,
    "footpath_length_m": 4168.5,
    "rainfall_mm": 2549.3,
    "weather_station": "Seletar",
    "passenger_volume": 4440,
    "exposure_score": 0.2217
  },
  {
    "station": "SOUTH VIEW LRT STATION",
    "lat": 1.380298,
    "lng": 103.745292,
    "n_exits": 0,
    "shelter_ratio": 0.2275,
    "covered_length_m": 1494.0,
    "footpath_length_m": 6566.4,
    "rainfall_mm": 2762.6,
    "weather_station": "Tengah",
    "passenger_volume": 4930,
    "exposure_score": 0.2167
  },
  {
    "station": "BAYSHORE MRT STATION",
    "lat": 1.312973,
    "lng": 103.941978,
    "n_exits": 0,
    "shelter_ratio": 0.0,
    "covered_length_m": 0.0,
    "footpath_length_m": 2827.8,
    "rainfall_mm": 1820.0,
    "weather_station": "East Coast Park",
    "passenger_volume": 6678,
    "exposure_score": 0.2118
  },
  {
    "station": "BAKAU LRT STATION",
    "lat": 1.388105,
    "lng": 103.905526,
    "n_exits": 0,
    "shelter_ratio": 0.221,
    "covered_length_m": 1411.8,
    "footpath_length_m": 6387.3,
    "rainfall_mm": 2352.0,
    "weather_station": "Punggol Central",
    "passenger_volume": 5921,
    "exposure_score": 0.2069
  },
  {
    "station": "RANGGUNG LRT STATION",
    "lat": 1.383921,
    "lng": 103.897493,
    "n_exits": 0,
    "shelter_ratio": 0.1861,
    "covered_length_m": 1143.1,
    "footpath_length_m": 6142.6,
    "rainfall_mm": 2352.0,
    "weather_station": "Punggol Central",
    "passenger_volume": 5564,
    "exposure_score": 0.202
  },
  {
    "station": "COVE LRT STATION",
    "lat": 1.399362,
    "lng": 103.905917,
    "n_exits": 0,
    "shelter_ratio": 0.3627,
    "covered_length_m": 1873.4,
    "footpath_length_m": 5164.9,
    "rainfall_mm": 2352.0,
    "weather_station": "Punggol Central",
    "passenger_volume": 7080,
    "exposure_score": 0.197
  },
  {
    "station": "TONGKANG LRT STATION",
    "lat": 1.389339,
    "lng": 103.885937,
    "n_exits": 0,
    "shelter_ratio": 0.092,
    "covered_length_m": 436.3,
    "footpath_length_m": 4744.0,
    "rainfall_mm": 2352.0,
    "weather_station": "Punggol Central",
    "passenger_volume": 4753,
    "exposure_score": 0.1921
  },
  {
    "station": "BANGKIT LRT STATION",
    "lat": 1.380015,
    "lng": 103.772661,
    "n_exits": 0,
    "shelter_ratio": 0.2323,
    "covered_length_m": 1238.1,
    "footpath_length_m": 5329.0,
    "rainfall_mm": 2677.0,
    "weather_station": "Mandai Lake Road",
    "passenger_volume": 4748,
    "exposure_score": 0.1872
  },
  {
    "station": "PHOENIX LRT STATION",
    "lat": 1.378625,
    "lng": 103.758034,
    "n_exits": 0,
    "shelter_ratio": 0.2238,
    "covered_length_m": 1745.5,
    "footpath_length_m": 7799.5,
    "rainfall_mm": 2677.0,
    "weather_station": "Mandai Lake Road",
    "passenger_volume": 3931,
    "exposure_score": 0.1823
  },
  {
    "station": "CHENG LIM LRT STATION",
    "lat": 1.396249,
    "lng": 103.893908,
    "n_exits": 0,
    "shelter_ratio": 0.4144,
    "covered_length_m": 2515.5,
    "footpath_length_m": 6070.6,
    "rainfall_mm": 2352.0,
    "weather_station": "Punggol Central",
    "passenger_volume": 5832,
    "exposure_score": 0.1773
  },
  {
    "station": "PENDING LRT STATION",
    "lat": 1.376127,
    "lng": 103.77128,
    "n_exits": 0,
    "shelter_ratio": 0.1802,
    "covered_length_m": 1094.2,
    "footpath_length_m": 6073.3,
    "rainfall_mm": 2677.0,
    "weather_station": "Mandai Lake Road",
    "passenger_volume": 3516,
    "exposure_score": 0.1724
  },
  {
    "station": "RIVIERA LRT STATION",
    "lat": 1.394636,
    "lng": 103.916224,
    "n_exits": 0,
    "shelter_ratio": 0.0545,
    "covered_length_m": 213.7,
    "footpath_length_m": 3921.4,
    "rainfall_mm": 2352.0,
    "weather_station": "Punggol Central",
    "passenger_volume": 3479,
    "exposure_score": 0.1675
  },
  {
    "station": "CASHEW MRT STATION",
    "lat": 1.369362,
    "lng": 103.764697,
    "n_exits": 0,
    "shelter_ratio": 0.5799,
    "covered_length_m": 3986.4,
    "footpath_length_m": 6874.4,
    "rainfall_mm": 2599.9,
    "weather_station": "Clementi Road",
    "passenger_volume": 6833,
    "exposure_score": 0.1626
  },
  {
    "station": "SAM KEE LRT STATION",
    "lat": 1.409614,
    "lng": 103.904831,
    "n_exits": 0,
    "shelter_ratio": 0.0153,
    "covered_length_m": 43.5,
    "footpath_length_m": 2844.4,
    "rainfall_mm": 2352.0,
    "weather_station": "Punggol Central",
    "passenger_volume": 3063,
    "exposure_score": 0.1576
  },
  {
    "station": "SUMANG LRT STATION",
    "lat": 1.408353,
    "lng": 103.89851,
    "n_exits": 0,
    "shelter_ratio": 0.0201,
    "covered_length_m": 109.5,
    "footpath_length_m": 5443.6,
    "rainfall_mm": 2352.0,
    "weather_station": "Punggol Central",
    "passenger_volume": 2992,
    "exposure_score": 0.1527
  },
  {
    "station": "RENJONG LRT STATION",
    "lat": 1.386748,
    "lng": 103.890429,
    "n_exits": 0,
    "shelter_ratio": 0.3372,
    "covered_length_m": 1748.5,
    "footpath_length_m": 5185.1,
    "rainfall_mm": 2352.0,
    "weather_station": "Punggol Central",
    "passenger_volume": 4022,
    "exposure_score": 0.1478
  },
  {
    "station": "SENJA LRT STATION",
    "lat": 1.382699,
    "lng": 103.762369,
    "n_exits": 0,
    "shelter_ratio": 0.2928,
    "covered_length_m": 2162.5,
    "footpath_length_m": 7385.3,
    "rainfall_mm": 2677.0,
    "weather_station": "Mandai Lake Road",
    "passenger_volume": 2465,
    "exposure_score": 0.1429
  },
  {
    "station": "PUNGGOL POINT LRT STATION",
    "lat": 1.416911,
    "lng": 103.906536,
    "n_exits": 0,
    "shelter_ratio": 0.0132,
    "covered_length_m": 68.9,
    "footpath_length_m": 5234.5,
    "rainfall_mm": 2352.0,
    "weather_station": "Punggol Central",
    "passenger_volume": 1849,
    "exposure_score": 0.1379
  },
  {
    "station": "PETIR LRT STATION",
    "lat": 1.377755,
    "lng": 103.766667,
    "n_exits": 0,
    "shelter_ratio": 0.4103,
    "covered_length_m": 2563.7,
    "footpath_length_m": 6247.7,
    "rainfall_mm": 2677.0,
    "weather_station": "Mandai Lake Road",
    "passenger_volume": 2266,
    "exposure_score": 0.133
  },
  {
    "station": "TUAS DEPOT",
    "lat": 1.340397,
    "lng": 103.641795,
    "n_exits": 0,
    "shelter_ratio": 0.0,
    "covered_length_m": 0.0,
    "footpath_length_m": 940.5,
    "rainfall_mm": 2713.1,
    "weather_station": "Nanyang Avenue (NTU)",
    "passenger_volume": 500,
    "exposure_score": 0.1281
  },
  {
    "station": "GALI BATU DEPOT",
    "lat": 1.397585,
    "lng": 103.756092,
    "n_exits": 0,
    "shelter_ratio": 0.0,
    "covered_length_m": 0.0,
    "footpath_length_m": 2170.4,
    "rainfall_mm": 2677.0,
    "weather_station": "Mandai Lake Road",
    "passenger_volume": 500,
    "exposure_score": 0.1182
  },
  {
    "station": "MANDAI DEPOT",
    "lat": 1.419559,
    "lng": 103.796631,
    "n_exits": 0,
    "shelter_ratio": 0.0,
    "covered_length_m": 0.0,
    "footpath_length_m": 314.5,
    "rainfall_mm": 2677.0,
    "weather_station": "Mandai Lake Road",
    "passenger_volume": 500,
    "exposure_score": 0.1182
  },
  {
    "station": "ULU PANDAN DEPOT",
    "lat": 1.329322,
    "lng": 103.760102,
    "n_exits": 0,
    "shelter_ratio": 0.0,
    "covered_length_m": 0.0,
    "footpath_length_m": 2879.4,
    "rainfall_mm": 2599.9,
    "weather_station": "Clementi Road",
    "passenger_volume": 500,
    "exposure_score": 0.1133
  },
  {
    "station": "BUKIT BROWN MRT STATION",
    "lat": 1.333732,
    "lng": 103.830712,
    "n_exits": 0,
    "shelter_ratio": 0.0,
    "covered_length_m": 0.0,
    "footpath_length_m": 989.9,
    "rainfall_mm": 2535.2,
    "weather_station": "Toa Payoh North",
    "passenger_volume": 500,
    "exposure_score": 0.1084
  },
  {
    "station": "HALIFAX SUB STATION CABLE TROUGH",
    "lat": 1.310963,
    "lng": 103.845449,
    "n_exits": 0,
    "shelter_ratio": 0.0826,
    "covered_length_m": 528.0,
    "footpath_length_m": 6393.9,
    "rainfall_mm": 2535.2,
    "weather_station": "Toa Payoh North",
    "passenger_volume": 500,
    "exposure_score": 0.1034
  },
  {
    "station": "MOUNT PLEASANT MRT STATION",
    "lat": 1.328547,
    "lng": 103.83506,
    "n_exits": 0,
    "shelter_ratio": 0.0829,
    "covered_length_m": 182.4,
    "footpath_length_m": 2200.3,
    "rainfall_mm": 2535.2,
    "weather_station": "Toa Payoh North",
    "passenger_volume": 500,
    "exposure_score": 0.0985
  },
  {
    "station": "TUNNEL STRUCTURE CONNECTING DEPOT TO FACILITY BUILDING",
    "lat": 1.343266,
    "lng": 103.893078,
    "n_exits": 0,
    "shelter_ratio": 0.0381,
    "covered_length_m": 267.8,
    "footpath_length_m": 7026.5,
    "rainfall_mm": 2425.3,
    "weather_station": "Kim Chuan Road",
    "passenger_volume": 500,
    "exposure_score": 0.0936
  },
  {
    "station": "TECK LEE LRT STATION",
    "lat": 1.412874,
    "lng": 103.906626,
    "n_exits": 0,
    "shelter_ratio": 0.0,
    "covered_length_m": 0.0,
    "footpath_length_m": 3407.7,
    "rainfall_mm": 2352.0,
    "weather_station": "Punggol Central",
    "passenger_volume": 500,
    "exposure_score": 0.0887
  },
  {
    "station": "KIM CHUAN DEPOT",
    "lat": 1.34177,
    "lng": 103.888938,
    "n_exits": 0,
    "shelter_ratio": 0.0469,
    "covered_length_m": 362.1,
    "footpath_length_m": 7717.1,
    "rainfall_mm": 2425.3,
    "weather_station": "Kim Chuan Road",
    "passenger_volume": 500,
    "exposure_score": 0.0837
  },
  {
    "station": "TAI SENG FACILITY BUILDING",
    "lat": 1.342183,
    "lng": 103.895203,
    "n_exits": 0,
    "shelter_ratio": 0.0473,
    "covered_length_m": 307.6,
    "footpath_length_m": 6509.2,
    "rainfall_mm": 2425.3,
    "weather_station": "Kim Chuan Road",
    "passenger_volume": 500,
    "exposure_score": 0.0788
  },
  {
    "station": "PUNGGOL COAST MRT STATION",
    "lat": 1.414938,
    "lng": 103.910218,
    "n_exits": 0,
    "shelter_ratio": 0.028,
    "covered_length_m": 139.8,
    "footpath_length_m": 4991.0,
    "rainfall_mm": 2352.0,
    "weather_station": "Punggol Central",
    "passenger_volume": 500,
    "exposure_score": 0.0739
  },
  {
    "station": "HUME MRT STATION",
    "lat": 1.354511,
    "lng": 103.769104,
    "n_exits": 0,
    "shelter_ratio": 0.148,
    "covered_length_m": 391.1,
    "footpath_length_m": 2642.8,
    "rainfall_mm": 2599.9,
    "weather_station": "Clementi Road",
    "passenger_volume": 500,
    "exposure_score": 0.069
  },
  {
    "station": "BISHAN DEPOT",
    "lat": 1.35372,
    "lng": 103.854756,
    "n_exits": 0,
    "shelter_ratio": 0.1499,
    "covered_length_m": 303.3,
    "footpath_length_m": 2022.8,
    "rainfall_mm": 2535.2,
    "weather_station": "Toa Payoh North",
    "passenger_volume": 500,
    "exposure_score": 0.064
  },
  {
    "station": "SENGKANG LRT DEPOT",
    "lat": 1.389362,
    "lng": 103.884535,
    "n_exits": 0,
    "shelter_ratio": 0.0851,
    "covered_length_m": 302.6,
    "footpath_length_m": 3555.9,
    "rainfall_mm": 2352.0,
    "weather_station": "Punggol Central",
    "passenger_volume": 500,
    "exposure_score": 0.0591
  },
  {
    "station": "PUNGGOL LRT STATION",
    "lat": 1.405167,
    "lng": 103.902393,
    "n_exits": 0,
    "shelter_ratio": 0.1005,
    "covered_length_m": 468.3,
    "footpath_length_m": 4657.3,
    "rainfall_mm": 2352.0,
    "weather_station": "Punggol Central",
    "passenger_volume": 500,
    "exposure_score": 0.0542
  },
  {
    "station": "SENGKANG MRT DEPOT",
    "lat": 1.387626,
    "lng": 103.885919,
    "n_exits": 0,
    "shelter_ratio": 0.1124,
    "covered_length_m": 347.6,
    "footpath_length_m": 3093.4,
    "rainfall_mm": 2352.0,
    "weather_station": "Punggol Central",
    "passenger_volume": 500,
    "exposure_score": 0.0493
  },
  {
    "station": "FOUNDERS' MEMORIAL MRT STATION",
    "lat": 1.290979,
    "lng": 103.868916,
    "n_exits": 0,
    "shelter_ratio": 0.0,
    "covered_length_m": 0.0,
    "footpath_length_m": 226.0,
    "rainfall_mm": 2114.0,
    "weather_station": "Kampong Bahru Road",
    "passenger_volume": 500,
    "exposure_score": 0.0443
  },
  {
    "station": "MARINA SOUTH MRT STATION",
    "lat": 1.274257,
    "lng": 103.863351,
    "n_exits": 0,
    "shelter_ratio": 0.0132,
    "covered_length_m": 67.5,
    "footpath_length_m": 5127.4,
    "rainfall_mm": 2114.0,
    "weather_station": "Kampong Bahru Road",
    "passenger_volume": 500,
    "exposure_score": 0.0394
  },
  {
    "station": "TELOK AYER MRT STATION",
    "lat": 1.282281,
    "lng": 103.848313,
    "n_exits": 0,
    "shelter_ratio": 0.0435,
    "covered_length_m": 494.2,
    "footpath_length_m": 11366.1,
    "rainfall_mm": 2114.0,
    "weather_station": "Kampong Bahru Road",
    "passenger_volume": 500,
    "exposure_score": 0.0345
  },
  {
    "station": "CHOA CHU KANG LRT STATION",
    "lat": 1.384822,
    "lng": 103.744549,
    "n_exits": 0,
    "shelter_ratio": 0.4229,
    "covered_length_m": 3339.0,
    "footpath_length_m": 7896.3,
    "rainfall_mm": 2762.6,
    "weather_station": "Tengah",
    "passenger_volume": 500,
    "exposure_score": 0.0296
  },
  {
    "station": "BOCC",
    "lat": 1.333054,
    "lng": 103.965316,
    "n_exits": 0,
    "shelter_ratio": 0.0172,
    "covered_length_m": 116.9,
    "footpath_length_m": 6779.1,
    "rainfall_mm": 1820.0,
    "weather_station": "East Coast Park",
    "passenger_volume": 500,
    "exposure_score": 0.0246
  },
  {
    "station": "BUKIT PANJANG LRT DEPOT",
    "lat": 1.380314,
    "lng": 103.760123,
    "n_exits": 0,
    "shelter_ratio": 0.424,
    "covered_length_m": 3561.4,
    "footpath_length_m": 8398.9,
    "rainfall_mm": 2677.0,
    "weather_station": "Mandai Lake Road",
    "passenger_volume": 500,
    "exposure_score": 0.0197
  },
  {
    "station": "CHANGI DEPOT",
    "lat": 1.329247,
    "lng": 103.95985,
    "n_exits": 0,
    "shelter_ratio": 0.0467,
    "covered_length_m": 115.9,
    "footpath_length_m": 2480.7,
    "rainfall_mm": 1820.0,
    "weather_station": "East Coast Park",
    "passenger_volume": 500,
    "exposure_score": 0.0148
  },
  {
    "station": "SUB STATION",
    "lat": 1.334444,
    "lng": 103.963751,
    "n_exits": 0,
    "shelter_ratio": 0.0947,
    "covered_length_m": 728.1,
    "footpath_length_m": 7692.0,
    "rainfall_mm": 1820.0,
    "weather_station": "East Coast Park",
    "passenger_volume": 500,
    "exposure_score": 0.0099
  },
  {
    "station": "SENGKANG LRT STATION",
    "lat": 1.391136,
    "lng": 103.895337,
    "n_exits": 0,
    "shelter_ratio": 0.4051,
    "covered_length_m": 3155.5,
    "footpath_length_m": 7789.0,
    "rainfall_mm": 2352.0,
    "weather_station": "Punggol Central",
    "passenger_volume": 500,
    "exposure_score": 0.0049
  },
  {
    "station": "BUKIT PANJANG LRT STATION",
    "lat": 1.377916,
    "lng": 103.763022,
    "n_exits": 0,
    "shelter_ratio": 0.5009,
    "covered_length_m": 4626.4,
    "footpath_length_m": 9236.4,
    "rainfall_mm": 2677.0,
    "weather_station": "Mandai Lake Road",
    "passenger_volume": 500,
    "exposure_score": 0.0
  }
]